CountryId,Country,Latitude,Longitude,Name
0,AD,42.546245,1.601554,Andorra
1,AE,23.424076,53.847818,United Arab Emirates
2,AF,33.93911,67.709953,Afghanistan
3,AG,17.060816,-61.796428,Antigua and Barbuda
5,AL,41.153332,20.168331,Albania
6,AM,40.069099,45.038189,Armenia
7,AO,-11.202692,17.873887,Angola
9,AR,-38.416097,-63.616672,Argentina
11,AT,47.516231,14.550072,Austria
12,AU,-25.274398,133.775136,Australia
14,AZ,40.143105,47.576927,Azerbaijan
15,BA,43.915886,17.679076,Bosnia and Herzegovina
16,BB,13.193887,-59.543198,Barbados
17,BD,23.684994,90.356331,Bangladesh
18,BE,50.503887,4.469936,Belgium
19,BF,12.238333,-1.561593,Burkina Faso
20,BG,42.733883,25.48583,Bulgaria
21,BH,25.930414,50.637772,Bahrain
22,BI,-3.373056,29.918886,Burundi
23,BJ,9.30769,2.315834,Benin
25,BN,4.535277,114.727669,Brunei
26,BO,-16.290154,-63.588653,Bolivia
27,BR,-14.235004,-51.92528,Brazil
28,BS,25.03428,-77.39628,Bahamas
29,BT,27.514162,90.433601,Bhutan
31,BW,-22.328474,24.684866,Botswana
32,BY,53.709807,27.953389,Belarus
33,BZ,17.189877,-88.49765,Belize
34,CA,56.130366,-106.346771,Canada
36,CD,-4.038333,21.758664,Congo [DRC]
37,CF,6.611111,20.939444,Central African Republic
38,CG,-0.228021,15.827659,Congo [Republic]
39,CH,46.818188,8.227512,Switzerland
40,CI,7.539989,-5.54708,Côte d'Ivoire
42,CL,-35.675147,-71.542969,Chile
43,CM,7.369722,12.354722,Cameroon
44,CN,35.86166,104.195397,China
45,CO,4.570868,-74.297333,Colombia
46,CR,9.748917,-83.753428,Costa Rica
47,CU,21.521757,-77.781167,Cuba
48,CV,16.002082,-24.013197,Cape Verde
50,CY,35.126413,33.429859,Cyprus
51,CZ,49.817492,15.472962,Czech Republic
52,DE,51.165691,10.451526,Germany
53,DJ,11.825138,42.590275,Djibouti
54,DK,56.26392,9.501785,Denmark
55,DM,15.414999,-61.370976,Dominica
56,DO,18.735693,-70.162651,Dominican Republic
57,DZ,28.033886,1.659626,Algeria
58,EC,-1.831239,-78.183406,Ecuador
59,EE,58.595272,25.013607,Estonia
60,EG,26.820553,30.802498,Egypt
61,EH,24.215527,-12.885834,Western Sahara
62,ER,15.179384,39.782334,Eritrea
63,ES,40.463667,-3.74922,Spain
64,ET,9.145,40.489673,Ethiopia
65,FI,61.92411,25.748151,Finland
66,FJ,-16.578193,179.414413,Fiji
68,FM,7.425554,150.550812,Micronesia
69,FO,61.892635,-6.911806,Faroe Islands
70,FR,46.227638,2.213749,France
71,GA,-0.803689,11.609444,Gabon
72,GB,53.825564,-2.421975,United Kingdom
73,GD,12.262776,-61.604171,Grenada
74,GE,42.315407,43.356892,Georgia
77,GH,7.946527,-1.023194,Ghana
78,GI,36.137741,-5.345374,Gibraltar
79,GL,71.706936,-42.604303,Greenland
80,GM,13.443182,-15.310139,Gambia
81,GN,9.945587,-9.696645,Guinea
83,GQ,1.650801,10.267895,Equatorial Guinea
84,GR,39.074208,21.824312,Greece
85,GS,-54.429579,-36.587909,South Georgia and the South Sandwich Islands
86,GT,15.783471,-90.230759,Guatemala
88,GW,11.803749,-15.180413,Guinea-Bissau
89,GY,4.860416,-58.93018,Guyana
90,HK,22.396428,114.109497,Hong Kong
92,HN,15.199999,-86.241905,Honduras
93,HR,45.1,15.2,Croatia
94,HT,18.971187,-72.285215,Haiti
95,HU,47.162494,19.503304,Hungary
96,ID,-0.789275,113.921327,Indonesia
97,IE,53.41291,-8.24389,Ireland
98,IL,31.046051,34.851612,Israel
100,IN,20.593684,78.96288,India
102,IQ,33.223191,43.679291,Iraq
103,IR,32.427908,53.688046,Iran
104,IS,64.963051,-19.020835,Iceland
105,IT,41.87194,12.56738,Italy
107,JM,18.109581,-77.297508,Jamaica
108,JO,30.585164,36.238414,Jordan
109,JP,36.204824,138.252924,Japan
110,KE,-0.023559,37.906193,Kenya
111,KG,41.20438,74.766098,Kyrgyzstan
112,KH,12.565679,104.990963,Cambodia
113,KI,-3.370417,-168.734039,Kiribati
114,KM,-11.875001,43.872219,Comoros
115,KN,17.357822,-62.782998,Saint Kitts and Nevis
116,KP,40.339852,127.510093,North Korea
117,KR,35.907757,127.766922,South Korea
118,KW,29.31166,47.481766,Kuwait
120,KZ,48.019573,66.923684,Kazakhstan
121,LA,19.85627,102.495496,Laos
122,LB,33.854721,35.862285,Lebanon
123,LC,13.909444,-60.978893,Saint Lucia
124,LI,47.166,9.555373,Liechtenstein
125,LK,7.873054,80.771797,Sri Lanka
126,LR,6.428055,-9.429499,Liberia
127,LS,-29.609988,28.233608,Lesotho
128,LT,55.169438,23.881275,Lithuania
129,LU,49.815273,6.129583,Luxembourg
130,LV,56.879635,24.603189,Latvia
131,LY,26.3351,17.228331,Libya
132,MA,31.791702,-7.09262,Morocco
133,MC,43.750298,7.412841,Monaco
134,MD,47.411631,28.369885,Moldova
135,ME,42.708678,19.37439,Montenegro
136,MG,-18.766947,46.869107,Madagascar
137,MH,7.131474,171.184478,Marshall Islands
138,MK,41.608635,21.745275,Macedonia [FYROM]
139,ML,17.570692,-3.996166,Mali
140,MM,21.913965,95.956223,Myanmar [Burma]
141,MN,46.862496,103.846656,Mongolia
145,MR,21.00789,-10.940835,Mauritania
147,MT,35.937496,14.375416,Malta
148,MU,-20.348404,57.552152,Mauritius
149,MV,3.202778,73.22068,Maldives
150,MW,-13.254308,34.301525,Malawi
151,MX,23.634501,-102.552784,Mexico
152,MY,4.210484,101.975766,Malaysia
153,MZ,-18.665695,35.529562,Mozambique
154,NA,-22.95764,18.49041,Namibia
156,NE,17.607789,8.081666,Niger
158,NG,9.081999,8.675277,Nigeria
159,NI,12.865416,-85.207229,Nicaragua
160,NL,52.132633,5.291266,Netherlands
161,NO,60.472024,8.468946,Norway
162,NP,28.394857,84.124008,Nepal
163,NR,-0.522778,166.931503,Nauru
165,NZ,-40.900557,174.885971,New Zealand
166,OM,21.512583,55.923255,Oman
167,PA,8.537981,-80.782127,Panama
168,PE,-9.189967,-75.015152,Peru
170,PG,-6.314993,143.95555,Papua New Guinea
171,PH,12.879721,121.774017,Philippines
172,PK,30.375321,69.345116,Pakistan
173,PL,51.919438,19.145136,Poland
177,PS,31.952162,35.233154,Palestine
178,PT,39.399872,-8.224454,Portugal
179,PW,7.51498,134.58252,Palau
180,PY,-23.442503,-58.443832,Paraguay
181,QA,25.354826,51.183884,Qatar
183,RO,45.943161,24.96676,Romania
184,RS,44.016521,21.005859,Serbia
185,RU,61.52401,105.318756,Russia
186,RW,-1.940278,29.873888,Rwanda
187,SA,23.885942,45.079162,Saudi Arabia
188,SB,-9.64571,160.156194,Solomon Islands
189,SC,-4.679574,55.491977,Seychelles
190,SD,12.862807,30.217636,Sudan
191,SE,60.128161,18.643501,Sweden
192,SG,1.352083,103.819836,Singapore
194,SI,46.151241,14.995463,Slovenia
196,SK,48.669026,19.699024,Slovakia
197,SL,8.460555,-11.779889,Sierra Leone
198,SM,43.94236,12.457777,San Marino
199,SN,14.497401,-14.452362,Senegal
200,SO,5.152149,46.199616,Somalia
201,SR,3.919305,-56.027783,Suriname
202,ST,0.18636,6.613081,São Tomé and Príncipe
203,SV,13.794185,-88.89653,El Salvador
204,SY,34.802075,38.996815,Syria
205,SZ,-26.522503,31.465866,Swaziland
207,TD,15.454166,18.732207,Chad
209,TG,8.619543,0.824782,Togo
210,TH,15.870032,100.992541,Thailand
211,TJ,38.861034,71.276093,Tajikistan
213,TL,-8.874217,125.727539,Timor-Leste
214,TM,38.969719,59.556278,Turkmenistan
215,TN,33.886917,9.537499,Tunisia
216,TO,-21.178986,-175.198242,Tonga
217,TR,38.963745,35.243322,Turkey
218,TT,10.691803,-61.222503,Trinidad and Tobago
219,TV,-7.109535,177.64933,Tuvalu
220,TW,23.69781,120.960515,Taiwan
221,TZ,-6.369028,34.888822,Tanzania
222,UA,48.379433,31.16558,Ukraine
223,UG,1.373333,32.290275,Uganda
224,US,37.09024,-95.712891,United States
225,UY,-32.522779,-55.765835,Uruguay
226,UZ,41.377491,64.585262,Uzbekistan
227,VA,41.902916,12.453389,Vatican City
228,VC,12.984305,-61.287228,Saint Vincent and the Grenadines
229,VE,6.42375,-66.58973,Venezuela
232,VN,14.058324,108.277199,Vietnam
233,VU,-15.376706,166.959158,Vanuatu
235,WS,-13.759029,-172.104629,Samoa
236,XK,42.602636,20.902977,Kosovo
237,YE,15.552727,48.516388,Yemen
239,ZA,-30.559482,22.937506,South Africa
240,ZM,-13.133897,27.849332,Zambia
241,ZW,-19.015438,29.154857,Zimbabwe